sno,sna,sarea,mday,ar,sareaen,snaen,aren,act,srcUpdateTime,updateTime,infoTime,infoDate,Quantity,available_rent_bikes,latitude,longitude,available_return_bikes
500101001,YouBike2.0_捷運科技大樓站,大安區,2026-02-07 17:00:02,復興南路二段235號前,Daan Dist.,YouBike2.0_MRT Technology Bldg. Sta.,No.235， Sec. 2， Fuxing S. Rd.,1,2026-02-07 17:30:52,2026-02-07 17:30:52,2026-02-07 17:00:02,2026-02-07,28,5,25.02605,121.5436,23
500101002,YouBike2.0_復興南路二段273號前,大安區,2026-02-07 15:50:03,復興南路二段273號西側,Daan Dist.,YouBike2.0_No.273， Sec. 2， Fuxing S. Rd.,No.273， Sec. 2， Fuxing S. Rd. (West),1,2026-02-07 17:30:52,2026-02-07 17:30:52,2026-02-07 15:50:03,2026-02-07,21,6,25.02565,121.54357,15
500101003,YouBike2.0_國北教大實小東側門,大安區,2026-02-07 14:40:03,和平東路二段96巷7號,Daan Dist.,YouBike2.0_NTUE Experiment Elementary School (East),No. 7， Ln. 96， Sec. 2， Heping E. Rd,1,2026-02-07 17:30:52,2026-02-07 17:30:52,2026-02-07 14:40:03,2026-02-07,28,3,25.02429,121.54124,24
500101004,YouBike2.0_和平公園東側,大安區,2026-02-07 17:20:19,和平東路二段118巷33號,Daan Dist.,YouBike2.0_Heping Park (East),No. 33， Ln. 118， Sec. 2， Heping E. Rd,1,2026-02-07 17:30:52,2026-02-07 17:30:52,2026-02-07 17:20:19,2026-02-07,11,11,25.02351,121.54282,0
500101005,YouBike2.0_辛亥復興路口西北側,大安區,2026-02-07 17:14:16,復興南路二段368號,Daan Dist.,YouBike2.0_Xinhai Fuxing Rd. Intersection (Northwest),No. 368， Sec. 2， Fuxing S. Rd.,1,2026-02-07 17:30:52,2026-02-07 17:30:52,2026-02-07 17:14:16,2026-02-07,16,12,25.02153,121.54299,3
500101006,YouBike2.0_復興南路二段280號前,大安區,2026-02-07 12:50:02,復興南路二段280號,Daan Dist.,YouBike2.0_No. 280， Sec. 2， Fuxing S. Rd.,No. 280， Sec. 2， Fuxing S. Rd.,1,2026-02-07 17:30:52,2026-02-07 17:30:52,2026-02-07 12:50:02,2026-02-07,27,16,25.02429,121.54328,11
500101007,YouBike2.0_復興南路二段340巷口,大安區,2026-02-07 15:40:02,復興南路二段342號,Daan Dist.,YouBike2.0_Ln. 340， Sec. 2， Fuxing S. Rd.,No. 342， Sec. 2， Fuxing S. Rd.,1,2026-02-07 17:30:52,2026-02-07 17:30:52,2026-02-07 15:40:02,2026-02-07,11,4,25.02253,121.54326,7
500101008,YouBike2.0_新生南路三段52號前,大安區,2026-02-07 16:50:03,新生南路三段52號,Daan Dist.,YouBike2.0_No. 52， Sec. 3， Xinsheng S. Rd.,No. 52， Sec. 3， Xinsheng S. Rd.,1,2026-02-07 17:30:52,2026-02-07 17:30:52,2026-02-07 16:50:03,2026-02-07,17,5,25.02112,121.53407,11
500101009,YouBike2.0_新生南路三段66號前,大安區,2026-02-07 16:31:17,新生南路三段66號東側,Daan Dist.,YouBike2.0_No. 66， Sec. 3， Xinsheng S. Rd.,No. 66， Sec. 3， Xinsheng S. Rd. (East),1,2026-02-07 17:30:52,2026-02-07 17:30:52,2026-02-07 16:31:17,2026-02-07,16,1,25.01976,121.53384,15
500101010,YouBike2.0_新生南路三段82號前,大安區,2026-02-07 17:28:18,新生南路三段82號,Daan Dist.,YouBike2.0_No. 82， Sec. 3， Xinsheng S. Rd.,No. 82， Sec. 3， Xinsheng S. Rd.,1,2026-02-07 17:30:52,2026-02-07 17:30:52,2026-02-07 17:28:18,2026-02-07,20,20,25.01894,121.53361,0
500101012,YouBike2.0_辛亥路一段30號前,大安區,2026-02-07 17:30:19,辛亥路一段30號,Daan Dist.,YouBike2.0_No. 30， Sec. 1， Xinhai Rd.,No. 30， Sec. 1， Xinhai Rd.,1,2026-02-07 17:30:52,2026-02-07 17:30:52,2026-02-07 17:30:19,2026-02-07,8,8,25.01986,121.52982,0
500101013,YouBike2.0_和平復興路口西北側,大安區,2026-02-07 17:20:19,復興南路二段236號,Daan Dist.,YouBike2.0_Heping Fuxing Rd. Intersection (Northwest),No. 236， Sec. 2， Fuxing S. Rd.,1,2026-02-07 17:30:52,2026-02-07 17:30:52,2026-02-07 17:20:19,2026-02-07,9,9,25.02543,121.54332,0
500101014,YouBike2.0_羅斯福路三段311號前,大安區,2026-02-07 17:00:02,羅斯福路三段311號,Daan Dist.,YouBike2.0_No. 311， Sec. 3， Roosevelt Rd.,No. 311， Sec. 3， Roosevelt Rd.,1,2026-02-07 17:30:52,2026-02-07 17:30:52,2026-02-07 17:00:02,2026-02-07,11,5,25.01717,121.53202,6
500101015,YouBike2.0_大安運動中心停車場,大安區,2026-02-07 17:05:16,敦南街76巷28號,Daan Dist.,YouBike2.0_Taipei Da-an Sports Center Parking lot,No. 28， Ln. 76， Dunnan St.,1,2026-02-07 17:30:52,2026-02-07 17:30:52,2026-02-07 17:05:16,2026-02-07,19,19,25.02089,121.54697,0
500101016,YouBike2.0_羅斯福路三段245號前,大安區,2026-02-07 17:13:16,羅斯福路三段245號,Daan Dist.,YouBike2.0_No. 245， Sec. 3， Roosevelt Rd.,No. 245， Sec. 3， Roosevelt Rd.,1,2026-02-07 17:30:52,2026-02-07 17:30:52,2026-02-07 17:13:16,2026-02-07,8,6,25.01927,121.52989,1
500101018,YouBike2.0_溫州公園,大安區,2026-02-07 17:30:19,羅斯福路三段283巷11號,Daan Dist.,YouBike2.0_Wenzhou Park,No. 11， Ln. 283， Sec. 3， Roosevelt Rd.,1,2026-02-07 17:30:52,2026-02-07 17:30:52,2026-02-07 17:30:19,2026-02-07,5,1,25.01895,121.53156,3
500101019,YouBike2.0_和平臥龍街口,大安區,2026-02-07 17:19:17,臥龍街1號,Daan Dist.,YouBike2.0_Heping Wolong St. Intersection,No. 1， Wolong St.,1,2026-02-07 17:30:52,2026-02-07 17:30:52,2026-02-07 17:19:17,2026-02-07,24,24,25.024461,121.546705,0
500101020,YouBike2.0_溫州停車場,大安區,2024-11-01 03:48:14,新生南路三段54巷/溫州街口,Daan Dist.,YouBike2.0_Wenzhou Parking Lot,Ln. 54， Sec. 3， Xinsheng S. Rd. & Wenzhou St. Intersection,0,2026-02-07 17:30:52,2026-02-07 17:30:52,2024-11-01 03:48:14,2024-11-01,5,0,25.02093,121.5331,5
500101021,YouBike2.0_銘傳國小側門,大安區,2026-02-07 17:30:19,羅斯福路四段21號旁天橋下,Daan Dist.,YouBike2.0_Taipei Municipal MingChuan Elementary School(Side Gate),No. 21， Sec. 4， Roosevelt Rd.,1,2026-02-07 17:30:52,2026-02-07 17:30:52,2026-02-07 17:30:19,2026-02-07,7,7,25.01385,121.53549,0
500101022,YouBike2.0_捷運公館站(2號出口),大安區,2026-02-07 17:24:18,捷運公館站(2號出口)外側,Daan Dist.,YouBike2.0_MRT Gongguan Sta. (Exit 2),MRT Gongguan Sta. (Exit 2),1,2026-02-07 17:30:52,2026-02-07 17:30:52,2026-02-07 17:24:18,2026-02-07,99,95,25.01491,121.53438,3
500101023,YouBike2.0_第二學生活動中心,大安區,2026-02-07 17:00:02,羅斯福路四段107號(西南側),Daan Dist.,YouBike2.0_2nd Student Activity Center,No. 107， Sec. 4， Roosevelt Rd.(Southwest),1,2026-02-07 17:30:52,2026-02-07 17:30:52,2026-02-07 17:00:02,2026-02-07,87,32,25.01244,121.53661,55
500101024,YouBike2.0_臺灣科技大學正門,大安區,2026-02-07 12:50:02,基隆路四段43號(臺灣科技大學正門旁小側門靠田徑場),Daan Dist.,YouBike2.0_NTUST(Main Gate),No. 43， Sec. 4， Keelung Rd.,1,2026-02-07 17:30:52,2026-02-07 17:30:52,2026-02-07 12:50:02,2026-02-07,50,12,25.01451,121.54142,38
500101025,YouBike2.0_臺灣科技大學側門,大安區,2026-02-07 17:29:16,基隆路四段73巷與基隆路口,Daan Dist.,YouBike2.0_NTUST(Side Gate),Ln. 73， Sec. 4， Keelung Rd. Intersection,1,2026-02-07 17:30:52,2026-02-07 17:30:52,2026-02-07 17:29:16,2026-02-07,97,1,25.01295,121.53973,95
500101026,YouBike2.0_公館公園,大安區,2026-02-07 14:50:03,羅斯福路四段113巷基隆路四段41巷口,Daan Dist.,YouBike2.0_Gongguan Park,Ln. 113， Sec. 4， Roosevelt Rd. & Ln. 41， Sec. 4， Keelung Rd. Intersection,1,2026-02-07 17:30:52,2026-02-07 17:30:52,2026-02-07 14:50:03,2026-02-07,30,5,25.01137,121.54062,25
500101027,YouBike2.0_臺灣科技大學後門,大安區,2026-02-07 17:00:02,基隆路四段41巷68弄臺科帆船大樓旁,Daan Dist.,YouBike2.0_NTUST(Back Gate),Aly. 68， Ln. 41， Sec. 4， Keelung Rd.,1,2026-02-07 17:30:52,2026-02-07 17:30:52,2026-02-07 17:00:02,2026-02-07,39,28,25.01182,121.54165,8
500101028,YouBike2.0_臺大醫學院附設癌醫中心,大安區,2026-02-07 16:40:04,基隆路三段155巷57號西側,Daan Dist.,YouBike2.0_NTU Cancer Center,No. 57， Ln. 155， Sec. 3， Keelung Rd.(West),1,2026-02-07 17:30:52,2026-02-07 17:30:52,2026-02-07 16:40:04,2026-02-07,20,8,25.01426,121.54382,11
500101029,YouBike2.0_臺大環研大樓,大安區,2026-02-07 17:14:16,芳蘭路/基隆路三段155巷口,Daan Dist.,YouBike2.0_NTU Environment Research Building,Fanglan Rd & Ln. 155， Sec. 3， Keelung Rd. Intersection,1,2026-02-07 17:30:52,2026-02-07 17:30:52,2026-02-07 17:14:16,2026-02-07,41,0,25.01234,121.54503,41
500101030,YouBike2.0_臺大永齡生醫工程館,大安區,2026-02-07 11:50:04,芳蘭路51號西北側,Daan Dist.,YouBike2.0_NTU Yonglin Biomedical Engineering Hall,No. 51， Fanglan Rd.(Northwest),1,2026-02-07 17:30:52,2026-02-07 17:30:52,2026-02-07 11:50:04,2026-02-07,34,2,25.0136,121.54656,32
500101031,YouBike2.0_臺大男七舍前,大安區,2026-02-07 16:50:03,長興街/長興街80巷口西側,Daan Dist.,YouBike2.0_NTU 7th Men's Dorm,Ln. 80， Changxing St. Intersection(West),1,2026-02-07 17:30:52,2026-02-07 17:30:52,2026-02-07 16:50:03,2026-02-07,20,10,25.01537,121.54698,10
500101032,YouBike2.0_臺大男一舍前,大安區,2026-02-07 16:10:03,長興街50號西北側,Daan Dist.,YouBike2.0_NTU 1st Men's Dorm,No. 50， Changxing St.(Northwest),1,2026-02-07 17:30:52,2026-02-07 17:30:52,2026-02-07 16:10:03,2026-02-07,61,2,25.01637,121.54535,59
500101033,YouBike2.0_臺大男六舍前,大安區,2026-02-07 17:19:17,大安區長興街31號,Daan Dist.,YouBike2.0_NTU 6th Men's Dorm,No. 31， Changxing St.,1,2026-02-07 17:30:52,2026-02-07 17:30:52,2026-02-07 17:19:17,2026-02-07,40,0,25.01664,121.5452,40
500101034,YouBike2.0_臺大動物醫院前,大安區,2026-02-07 17:11:17,基隆路三段155巷/基隆路四段口,Daan Dist.,YouBike2.0_NTU Veterinary Hospital,Ln. 155， Sec. 3， Keelung Rd. Intersection,1,2026-02-07 17:30:52,2026-02-07 17:30:52,2026-02-07 17:11:17,2026-02-07,18,0,25.01576,121.54291,18
500101035,YouBike2.0_臺大土木研究大樓前,大安區,2026-02-07 16:10:03,辛亥路三段188號,Daan Dist.,YouBike2.0_NTU Civil Engineering Research Building,No. 188， Sec. 3， Xinhai Rd.,1,2026-02-07 17:30:52,2026-02-07 17:30:52,2026-02-07 16:10:03,2026-02-07,24,16,25.01787,121.5476,7
500101036,YouBike2.0_臺大萬才館前,大安區,2026-02-07 15:24:17,臺大萬才館北側,Daan Dist.,YouBike2.0_NTU Wan Tsai Research Hall,NTU Wan Tsai Research Hall,1,2026-02-07 17:30:52,2026-02-07 17:30:52,2026-02-07 15:24:17,2026-02-07,20,7,25.02032,121.54497,12
500101037,YouBike2.0_臺大國青大樓宿舍前,大安區,2026-02-07 11:10:02,辛亥路三段30號西北側,Daan Dist.,YouBike2.0_NTU Guo - Ching Building,No. 30， Sec. 3， Xinhai Rd.(Northwest),1,2026-02-07 17:30:52,2026-02-07 17:30:52,2026-02-07 11:10:02,2026-02-07,20,3,25.02076,121.54432,15
500101038,YouBike2.0_臺大社科院圖書館前,大安區,2026-02-07 17:00:02,辛亥路與復興南路口西南側,Daan Dist.,YouBike2.0_NTU College of social Sciences Building,Xinhai Fuxing Rd. Intersection (Southwest),1,2026-02-07 17:30:52,2026-02-07 17:30:52,2026-02-07 17:00:02,2026-02-07,27,1,25.02101,121.54284,26
500101039,YouBike2.0_臺大法人語言訓練中心前,大安區,2026-02-07 16:10:03,臺大法人語言訓練中心北側,Daan Dist.,YouBike2.0_NTU Language Training & Testing Center,NTU Language Training & Testing Center(North),1,2026-02-07 17:30:52,2026-02-07 17:30:52,2026-02-07 16:10:03,2026-02-07,28,10,25.02104,121.54081,18
500101040,YouBike2.0_臺大綜合體育館停車場前,大安區,2026-02-07 14:09:19,臺大綜合體育館北側,Daan Dist.,YouBike2.0_NTU Sports Center Car Park,NTU Sports Center(North),1,2026-02-07 17:30:52,2026-02-07 17:30:52,2026-02-07 14:09:19,2026-02-07,25,17,25.0222,121.53626,7
500101041,YouBike2.0_辛亥新生路口東南側,大安區,2026-02-07 16:10:03,辛亥新生路口東南側,Daan Dist.,YouBike2.0_Xinhai Xinsheng Rd. Intersection (Southeast),Xinhai Xinsheng Rd. Intersection (Southeast),1,2026-02-07 17:30:52,2026-02-07 17:30:52,2026-02-07 16:10:03,2026-02-07,50,25,25.02218,121.53474,25
500101042,YouBike2.0_基隆長興路口東側,大安區,2026-02-07 17:00:02,基隆長興路口東側,Daan Dist.,YouBike2.0_Keelung Changxing Rd. Intersection(East),Keelung Changxing Rd. Intersection(East),1,2026-02-07 17:30:52,2026-02-07 17:30:52,2026-02-07 17:00:02,2026-02-07,15,4,25.01727,121.54471,11
500101091,YouBike2.0_國北教大側門南側,大安區,2026-02-07 16:50:03,敦南街51號,Daan Dist.,YouBike2.0_NTUE Side Gate(South),No. 51， Dunnan St.,1,2026-02-07 17:30:52,2026-02-07 17:30:52,2026-02-07 16:50:03,2026-02-07,34,19,25.022864,121.546622,15
500101092,YouBike2.0_和平實小東北側,大安區,2026-02-07 16:50:03,敦南街73號,Daan Dist.,YouBike2.0_Heping Experiment Elementary School (Northeast),No. 73， Dunnan St.,1,2026-02-07 17:30:52,2026-02-07 17:30:52,2026-02-07 16:50:03,2026-02-07,25,4,25.021641,121.54704,21
500101093,YouBike2.0_大安區健康服務中心,大安區,2026-02-07 17:22:17,辛亥路三段15號,Daan Dist.,YouBike2.0_Daan District Public Health Center,No. 15， Sec. 1， Xinhai Rd.,1,2026-02-07 17:30:52,2026-02-07 17:30:52,2026-02-07 17:22:17,2026-02-07,23,23,25.021469,121.544069,0
500101094,YouBike2.0_辛亥泰順街口,大安區,2026-02-07 16:50:03,辛亥泰順街口東南側,Daan Dist.,YouBike2.0_Xinhai Taishun St. Intersection,Xinhai Taishun St. Intersection (Southeast),1,2026-02-07 17:30:52,2026-02-07 17:30:52,2026-02-07 16:50:03,2026-02-07,20,12,25.02193,121.53165,8
500101095,YouBike2.0_臺北市芳和實驗中學,大安區,2026-02-07 13:40:03,臥龍街170號(前),Daan Dist.,YouBike2.0_Taipei City FangHe Experimental High School,No. 170， Wolong St.,1,2026-02-07 17:30:52,2026-02-07 17:30:52,2026-02-07 13:40:03,2026-02-07,76,16,25.0189,121.55013,60
500101097,YouBike2.0_臥龍樂業街口,大安區,2026-02-07 16:50:03,臥龍街234-2號,Daan Dist.,YouBike2.0_Wolong Leye St. Intersection,No. 234-2， Wolong St.,1,2026-02-07 17:30:52,2026-02-07 17:30:52,2026-02-07 16:50:03,2026-02-07,64,18,25.01856,121.55558,46
500101098,YouBike2.0_臥龍公園,大安區,2026-02-07 16:10:03,辛亥路三段223號西側,Daan Dist.,YouBike2.0_Wolong Park,No. 223， Sec. 3， Xinhai Rd. (West),1,2026-02-07 17:30:52,2026-02-07 17:30:52,2026-02-07 16:10:03,2026-02-07,25,14,25.01623,121.55037,11
500101099,YouBike2.0_嘉興公園,大安區,2026-02-07 17:00:02,樂業街101巷3號西北側,Daan Dist.,YouBike2.0_Jiaxing Park,No. 3， Ln. 101， Leye St. (Northwest),1,2026-02-07 17:30:52,2026-02-07 17:30:52,2026-02-07 17:00:02,2026-02-07,44,7,25.021,121.55211,35
500101100,YouBike2.0_捷運麟光站(2號出口),大安區,2026-02-07 16:13:18,和平東路三段420號東北側,Daan Dist.,YouBike2.0_MRT Linguang Sta. (Exit 2),No. 420， Sec. 3， Heping E. Rd. (Northeast),1,2026-02-07 17:30:52,2026-02-07 17:30:52,2026-02-07 16:13:18,2026-02-07,69,1,25.0181,121.55929,68
500101101,YouBike2.0_捷運六張犁站,大安區,2026-02-07 17:00:02,和平東路三段410號,Daan Dist.,YouBike2.0_MRT Liuzhangli Sta.,No. 410， Sec. 3， Heping E. Rd.,1,2026-02-07 17:30:52,2026-02-07 17:30:52,2026-02-07 17:00:02,2026-02-07,64,53,25.02397,121.55266,11
500101102,YouBike2.0_喬治工商,大安區,2026-02-07 17:11:17,基隆路二段166號,Daan Dist.,YouBike2.0_George Vocational High School of Taipei,No. 166， Sec. 2， Keelung Rd.,1,2026-02-07 17:30:52,2026-02-07 17:30:52,2026-02-07 17:11:17,2026-02-07,22,2,25.02705,121.55551,20
500101103,YouBike2.0_法治公園,大安區,2026-02-07 13:50:03,通化街189號西側,Daan Dist.,YouBike2.0_Fazhi Park,No. 189， Tonghua St. (West),1,2026-02-07 17:30:52,2026-02-07 17:30:52,2026-02-07 13:50:03,2026-02-07,41,23,25.02694,121.55325,18
500101104,YouBike2.0_捷運臺電大樓站(2號出口),大安區,2026-02-07 16:40:04,辛亥路一段/羅斯福路三段口北側(辛亥路側),Daan Dist.,YouBike2.0_MRT Taipower Building Sta. (Exit 2),Sec. 1， Xinhai Rd & Sec. 3， Roosevelt Rd (North),1,2026-02-07 17:30:52,2026-02-07 17:30:52,2026-02-07 16:40:04,2026-02-07,18,6,25.02021,121.52942,12
500101105,YouBike2.0_和平金山路口,大安區,2026-02-07 16:50:03,和平東路一段/金山南路二段西南側,Daan Dist.,YouBike2.0_Sec. 1， Heping E. Rd & Sec. 2， Jinshan S. Rd Intersection,Sec. 1， Heping E. Rd & Sec. 2， Jinshan S. Rd Intersection (Southwest),1,2026-02-07 17:30:52,2026-02-07 17:30:52,2026-02-07 16:50:03,2026-02-07,58,22,25.02669,121.52529,36
500101107,YouBike2.0_和平龍泉街口,大安區,2026-02-07 17:00:02,和平東路一段/龍泉街口西南側,Daan Dist.,YouBike2.0_Sec. 1， Heping E. Rd & Longquan St. Intersection,Sec. 1， Heping E. Rd & Longquan St. Intersection (Southwest),1,2026-02-07 17:30:52,2026-02-07 17:30:52,2026-02-07 17:00:02,2026-02-07,34,8,25.02638,121.52971,22
500101108,YouBike2.0_和平泰順街口,大安區,2026-02-07 17:00:02,和平東路一段/泰順街口東南側,Daan Dist.,YouBike2.0_Sec. 1， Heping E. Rd & Taishun St  Intersection,Sec. 1， Heping E. Rd & Taishun St  Intersection (Southeast),1,2026-02-07 17:30:52,2026-02-07 17:30:52,2026-02-07 17:00:02,2026-02-07,19,5,25.02621,121.53171,13
500101109,YouBike2.0_臺灣師範大學(圖書館),大安區,2026-02-07 16:50:03,和平東路一段129號前,Daan Dist.,YouBike2.0_National Taiwan Normal University (library),No. 129， Sec. 1， Heping E. Rd.,1,2026-02-07 17:30:52,2026-02-07 17:30:52,2026-02-07 16:50:03,2026-02-07,40,26,25.0266,121.52973,14
500101110,YouBike2.0_捷運古亭站(6號出口),大安區,2026-02-07 16:50:03,羅斯福路二段41號前,Daan Dist.,YouBike2.0_MRT Guting Sta. (Exit 6),No. 41， Sec. 2， Roosevelt Rd,1,2026-02-07 17:30:52,2026-02-07 17:30:52,2026-02-07 16:50:03,2026-02-07,60,50,25.0276,121.52217,10
500101111,YouBike2.0_捷運古亭站(5號出口),大安區,2025-02-12 12:39:16,和平東路一段19號前,Daan Dist.,YouBike2.0_MRT Guting Sta. (Exit 5),No. 19， Sec. 1， Heping E. Rd,0,2026-02-07 17:30:52,2026-02-07 17:30:52,2025-02-12 12:39:16,2025-02-12,14,0,25.02715,121.52293,14
500101113,YouBike2.0_臺北市立圖書館(總館),大安區,2026-02-07 17:00:02,建國南路二段/建國南路二段151巷(橋下空間),Daan Dist.,YouBike2.0_Taipei Public library,Sec. 2， Jianguo S. Rd & Ln. 151， Sec. 2， Jianguo S. Rd (Under Bridge),1,2026-02-07 17:30:52,2026-02-07 17:30:52,2026-02-07 17:00:02,2026-02-07,99,48,25.02895,121.5379,50
500101114,YouBike2.0_新生和平路口東北側,大安區,2026-02-07 17:17:17,新生南路二段與和平東路二段口東北側,Daan Dist.,YouBike2.0_Sec. 2， Xinsheng S. Rd & Sec. 2， Heping E. Rd Intersection,Sec. 2， Xinsheng S. Rd & Sec. 2， Heping E. Rd (Northeast),1,2026-02-07 17:30:52,2026-02-07 17:30:52,2026-02-07 17:17:17,2026-02-07,51,1,25.02657,121.53515,50
500101115,YouBike2.0_建國和平路口西北側,大安區,2026-02-07 17:00:02,建國南路二段與和平東路二段口西北側,Daan Dist.,YouBike2.0_Sec. 2， Jianguo S. Rd & Sec. 2， Heping E. Rd Intersection,Sec. 2， Jianguo S. Rd & Sec. 2， Heping E. Rd. (Northwest),1,2026-02-07 17:30:52,2026-02-07 17:30:52,2026-02-07 17:00:02,2026-02-07,50,17,25.02606,121.53738,33
500101116,YouBike2.0_金華公園,大安區,2026-02-07 17:00:02,金華街249號對面,Daan Dist.,YouBike2.0_Jinhua Park,No. 249， Jinhua St. (Opposite),1,2026-02-07 17:30:52,2026-02-07 17:30:52,2026-02-07 17:00:02,2026-02-07,44,39,25.02984,121.53107,5
500101117,YouBike2.0_捷運東門站(3號出口),大安區,2025-02-27 01:05:15,信義路二段128號前,Daan Dist.,YouBike2.0_MRT Dongmen Sta. (Exit 3),No. 128， Sec. 2， Xinyi Rd.,0,2026-02-07 17:30:52,2026-02-07 17:30:52,2025-02-27 01:05:15,2025-02-27,18,0,25.03383,121.52815,0
500101118,YouBike2.0_金甌女中,大安區,2026-02-07 16:10:03,信義路二段與杭州南路二段東南側,Daan Dist.,YouBike2.0_Jin'ou Girls High School,Sec. 2， Xinyi Rd. & Sec. 2， Hangzhou S. Rd. (Southeast),1,2026-02-07 17:30:52,2026-02-07 17:30:52,2026-02-07 16:10:03,2026-02-07,15,7,25.03519,121.5245,8
500101119,YouBike2.0_金杭公園,大安區,2026-02-07 17:14:16,愛國東路21巷與杭州南路二段25巷口東南側,Daan Dist.,YouBike2.0_Jinhang Park,Ln. 21， Aiguo E. Rd. & Ln. 25， Sec. 2， Hangzhou S. Rd. Intersection (Southeast),1,2026-02-07 17:30:52,2026-02-07 17:30:52,2026-02-07 17:14:16,2026-02-07,20,0,25.03325,121.52436,19
500101120,YouBike2.0_愛國金山路口,大安區,2026-02-07 14:50:03,愛國東路與杭州南路二段口西南側,Daan Dist.,YouBike2.0_Aiguo & Jinshan Rd. Intersection,Aiguo E. Rd. & Sec. 2， Hangzhou S. Rd. Intersection (Southwest),1,2026-02-07 17:30:52,2026-02-07 17:30:52,2026-02-07 14:50:03,2026-02-07,57,35,25.03164,121.52661,22
500101122,YouBike2.0_敦化南路二段293巷口南側,大安區,2026-02-07 08:40:04,敦化南路二段293巷口南側,Daan Dist.,YouBike2.0_Ln. 293， Sec. 2， Dunhua S. Rd (South),Ln. 293， Sec. 2， Dunhua S. Rd. (South),1,2026-02-07 17:30:52,2026-02-07 17:30:52,2026-02-07 08:40:04,2026-02-07,14,3,25.0237,121.54899,11
500101123,YouBike2.0_敦化基隆路口,大安區,2026-02-07 16:10:03,敦化南路二段218號,Daan Dist.,YouBike2.0_Sec. 2， Dunhua S. Rd & Sec. 2， Keelung Rd Intersection,No. 218， Sec. 2， Dunhua S. Rd,1,2026-02-07 17:30:52,2026-02-07 17:30:52,2026-02-07 16:10:03,2026-02-07,38,12,25.02215,121.54839,26
500101124,YouBike2.0_安和路二段181巷口,大安區,2026-02-07 16:10:03,安和路二段185號,Daan Dist.,YouBike2.0_Ln. 181， Sec. 2， Anhe Rd,No185， Sec. 2， Anhe Rd,1,2026-02-07 17:30:52,2026-02-07 17:30:52,2026-02-07 16:10:03,2026-02-07,29,23,25.02721,121.54988,6
500101125,YouBike2.0_臨江街夜市(通化街101巷口),大安區,2026-02-07 14:50:03,通化街111號,Daan Dist.,YouBike2.0_Linjiang St night market (Ln. 101， Tonghua St),No. 101， Tonghua St.,1,2026-02-07 17:30:52,2026-02-07 17:30:52,2026-02-07 14:50:03,2026-02-07,30,14,25.02952,121.55406,13
500101126,YouBike2.0_臨江街夜市(基隆路),大安區,2026-02-07 17:00:02,基隆路二段108號,Daan Dist.,YouBike2.0_Linjiang St night market (Keelung Rd),No. 108， Sec. 2， Keelung Rd.,1,2026-02-07 17:30:52,2026-02-07 17:30:52,2026-02-07 17:00:02,2026-02-07,29,6,25.02931,121.55721,20
500101127,YouBike2.0_台北科技大學億光大樓,大安區,2026-02-07 16:10:03,忠孝東路三段81號,Daan Dist.,YouBike2.0_National Taipei University of Technology (Everlight Building),No. 81， Sec. 3， Zhongxiao E. Rd.,1,2026-02-07 17:30:52,2026-02-07 17:30:52,2026-02-07 16:10:03,2026-02-07,59,7,25.04177,121.53833,52
500101128,YouBike2.0_新生南路一段119巷口,大安區,2026-02-07 17:00:02,新生南路一段113號,Daan Dist.,YouBike2.0_Ln. 119， Sec. 1， Xinsheng S. Rd Intersection,No. 113， Ln. 119， Sec. 1， Xinsheng S. Rd.,1,2026-02-07 17:30:52,2026-02-07 17:30:52,2026-02-07 17:00:02,2026-02-07,63,14,25.04003,121.53299,48
500101129,YouBike2.0_幸安國小(仁愛路),大安區,2026-02-07 16:40:04,仁愛路三段22號,Daan Dist.,YouBike2.0_Xing'an Elementary School (Ren'ai Rd),No. 22， Sec. 3， Ren'ai Rd.,1,2026-02-07 17:30:52,2026-02-07 17:30:52,2026-02-07 16:40:04,2026-02-07,28,8,25.03753,121.53523,19
500101130,YouBike2.0_民榮公園,大安區,2026-02-07 17:00:02,建國南路一段304巷45號南側,Daan Dist.,YouBike2.0_Minrong Park,No. 45， Ln. 304， Sec. 1， Jianguo S. Rd. (South),1,2026-02-07 17:30:52,2026-02-07 17:30:52,2026-02-07 17:00:02,2026-02-07,31,14,25.03534,121.5354,17
500101131,YouBike2.0_復興南路1段340巷口,大安區,2026-02-07 17:00:02,復興南路一段信義路三段147巷45弄口,Daan Dist.,YouBike2.0_Ln. 340， Sec. 1， Fuxing S. Rd Intersection,Sec. 1， Fuxing S. Rd & Aly. 45， Ln. 147， Sec. 3， Xinyi Rd Intersection.,1,2026-02-07 17:30:52,2026-02-07 17:30:52,2026-02-07 17:00:02,2026-02-07,50,23,25.03701,121.54348,25
500101132,YouBike2.0_建國濟南路口,大安區,2026-02-07 17:00:02,建國南路一段/濟南路三段口(東南側),Daan Dist.,YouBike2.0_Sec. 1， Jianguo S. Rd & Sec. 3， Jinan Rd Intersection,Sec. 1， Jianguo S. Rd & Sec. 3， Jinan Rd Intersection. (Southeast),1,2026-02-07 17:30:52,2026-02-07 17:30:52,2026-02-07 17:00:02,2026-02-07,54,47,25.03935,121.53828,7
500101133,YouBike2.0_捷運忠孝復興站(2號出口),大安區,2026-01-12 09:22:02,復興南路一段/仁愛路三段123巷13弄(西北側),Daan Dist.,YouBike2.0_MRT Zhongxiao Fuxing Sta (Exit 2),Sec. 1， Fuxing S. R & Aly. 13， Ln. 123， Sec. 3， Ren'ai Rd. (Northwest),0,2026-02-07 17:30:52,2026-02-07 17:30:52,2026-01-12 09:22:02,2026-01-12,43,0,25.04035,121.5436,0
500101134,YouBike2.0_捷運大安站(4號出口),大安區,2026-02-07 17:29:16,信義路4段6號(前),Daan Dist.,YouBike2.0_MRT Da’an Sta (Exit 4),No. 6， Sec. 4， Xinyi Rd.,1,2026-02-07 17:30:52,2026-02-07 17:30:52,2026-02-07 17:29:16,2026-02-07,13,0,25.0332,121.5439,13
500101135,YouBike2.0_捷運大安站(2號出口),大安區,2026-02-07 17:00:02,信義路3段143號(前),Daan Dist.,YouBike2.0_MRT Da’an Sta (Exit 2),No. 143， Sec. 3， Xinyi Rd.,1,2026-02-07 17:30:52,2026-02-07 17:30:52,2026-02-07 17:00:02,2026-02-07,60,10,25.03358,121.54141,49
500101136,YouBike2.0_信義大安路口(信維大樓),大安區,2026-02-07 17:12:15,信義路四段74號(前),Daan Dist.,YouBike2.0_Sec. 4， Xinyi Rd & Da’an Rd Intersection (Xinwei Building),No. 74， Sec. 4， Xinyi Rd.,1,2026-02-07 17:30:52,2026-02-07 17:30:52,2026-02-07 17:12:15,2026-02-07,18,1,25.03317,121.54639,17
500101137,YouBike2.0_龍門廣場,大安區,2026-02-07 17:18:16,敦化南路一段與敦化南路一段236巷口,Daan Dist.,YouBike2.0_Long Men Plaza,Sec. 1， Dunhua S. Rd & Ln. 236， Sec. 1， Dunhua S. Rd Intersection.,1,2026-02-07 17:30:52,2026-02-07 17:30:52,2026-02-07 17:18:16,2026-02-07,70,67,25.04092,121.54825,0
500101138,YouBike2.0_仁愛安和路口,大安區,2026-02-07 16:10:03,仁愛路四段258號前,Daan Dist.,YouBike2.0_Sec. 4， Ren'ai Rd & Sec. 1， Anhe Rd Intersection,No. 74， Sec. 4， Ren'ai Rd.,1,2026-02-07 17:30:52,2026-02-07 17:30:52,2026-02-07 16:10:03,2026-02-07,33,31,25.03754,121.55285,2
500101139,YouBike2.0_信義敦化路口,大安區,2026-02-07 16:40:04,信義路四段155號前,Daan Dist.,YouBike2.0_Sec. 4， Xinyi Rd & Sec. 1， Dunhua S. Rd Intersection,No. 155， Sec. 4， Xinyi Rd,1,2026-02-07 17:30:52,2026-02-07 17:30:52,2026-02-07 16:40:04,2026-02-07,52,18,25.03333,121.54977,32
500101140,YouBike2.0_仁愛國中,大安區,2026-02-07 17:00:02,安和路一段75號(對面),Daan Dist.,YouBike2.0_Ren Ai Junior High School,No. 75， Sec. 1， Anhe Rd.,1,2026-02-07 17:30:52,2026-02-07 17:30:52,2026-02-07 17:00:02,2026-02-07,25,20,25.03706,121.55166,4
500101141,YouBike2.0_捷運信義安和站(2號出口),大安區,2026-02-07 16:50:03,信義路四段188號前,Daan Dist.,YouBike2.0_MRT Xinyi Anhe Sta (Exit 2),No. 188， Sec. 4， Xinyi Rd,1,2026-02-07 17:30:52,2026-02-07 17:30:52,2026-02-07 16:50:03,2026-02-07,24,14,25.03304,121.55171,10
500101142,YouBike2.0_八德市場,大安區,2026-02-07 17:19:17,市民大道三段170號,Daan Dist.,YouBike2.0_Bade Traditional Market,No. 170， Sec. 3， Civic Blvd.,1,2026-02-07 17:30:52,2026-02-07 17:30:52,2026-02-07 17:19:17,2026-02-07,30,1,25.04463,121.53665,29
500101143,YouBike2.0_昌隆公園,大安區,2026-02-07 16:50:03,市民大道三段206號西側,Daan Dist.,YouBike2.0_Changlong Park,No. 206， Sec. 3， Civic Blvd. (West),1,2026-02-07 17:30:52,2026-02-07 17:30:52,2026-02-07 16:50:03,2026-02-07,16,3,25.04448,121.53946,13
500101144,YouBike2.0_捷運大安森林公園站(2號出口),大安區,2026-02-07 17:01:17,捷運大安森林公園站(2號出口)西側,Daan Dist.,YouBike2.0_MRT Daan Park Sta. (Exit 2),MRT Daan Park Sta. (Exit 2) (West),1,2026-02-07 17:30:52,2026-02-07 17:30:52,2026-02-07 17:01:17,2026-02-07,69,62,25.03332,121.53435,7
500101145,YouBike2.0_信義延吉街口,大安區,2026-02-07 17:29:16,信義路四段353號,Daan Dist.,YouBike2.0_Sec. 4，Xinyi Rd & Yanji St Intersection,No. 353， Sec. 4， Xinyi Rd.,1,2026-02-07 17:30:52,2026-02-07 17:30:52,2026-02-07 17:29:16,2026-02-07,15,14,25.03318,121.55725,0
500101146,YouBike2.0_光信公園(光復南路456巷),大安區,2026-02-07 17:11:17,延吉街249號,Daan Dist.,YouBike2.0_Guangxin Park (Ln. 456， Guangfu S. Rd),No. 249， Yanji St.,1,2026-02-07 17:30:52,2026-02-07 17:30:52,2026-02-07 17:11:17,2026-02-07,25,9,25.03513,121.5561,15
500101147,YouBike2.0_僑安地下停車場(2號出口)東南側,大安區,2026-02-07 14:51:15,光復南路290巷5號,Daan Dist.,YouBike2.0_Qiao An Dixia Parking (Exit 2) (Southeast),No. 5， Ln. 290， Guangfu S. Rd,1,2026-02-07 17:30:52,2026-02-07 17:30:52,2026-02-07 14:51:15,2026-02-07,20,18,25.0391,121.5569,1
500101148,YouBike2.0_建國南路一段279巷口,大安區,2026-02-07 16:50:03,建國南路一段275號,Daan Dist.,YouBike2.0_Ln. 279， Sec. 1， Jianguo S. Rd Intersection,No. 275， Sec. 1， Jianguo S. Rd.,1,2026-02-07 17:30:52,2026-02-07 17:30:52,2026-02-07 16:50:03,2026-02-07,62,37,25.03635,121.53833,25
500101149,YouBike2.0_捷運忠孝新生站(6號出口),大安區,2026-02-07 07:10:02,新生南路一段101號,Daan Dist.,YouBike2.0_MRT Zhongxiao Xinsheng Sta. (Exit 6),No. 101， Sec. 1， Xinsheng S. Rd.,1,2026-02-07 17:30:52,2026-02-07 17:30:52,2026-02-07 07:10:02,2026-02-07,35,26,25.04091,121.53295,9
500101150,YouBike2.0_捷運忠孝新生站(4號出口),大安區,2026-02-07 16:50:03,忠孝新生路口北側,Daan Dist.,YouBike2.0_MRT Zhongxiao Xinsheng Sta. (Exit 4),Zhongxiao & Xinsheng S. Rd Intersection. (North),1,2026-02-07 17:30:52,2026-02-07 17:30:52,2026-02-07 16:50:03,2026-02-07,46,19,25.04239,121.53324,27
500101151,YouBike2.0_大安高工,大安區,2026-02-07 17:09:17,復興南路二段52號(前),Daan Dist.,YouBike2.0_Daan Vocational High School,No. 52， Sec. 2， Fuxing S. Rd.,1,2026-02-07 17:30:52,2026-02-07 17:30:52,2026-02-07 17:09:17,2026-02-07,23,3,25.03126,121.54339,18
500101152,YouBike2.0_捷運忠孝新生站(3號出口),大安區,2026-02-07 17:00:02,忠孝東路三段與10巷口,Daan Dist.,YouBike2.0_MRT Zhongxiao Xinsheng Sta. (Exit 3),Sec. 3， Zhongxiao E. Rd & Ln. 10， Sec. 3， Zhongxiao E. Rd Intersection,1,2026-02-07 17:30:52,2026-02-07 17:30:52,2026-02-07 17:00:02,2026-02-07,43,16,25.04189,121.53376,27
500101153,YouBike2.0_瑠公公園,大安區,2026-02-07 16:50:03,忠孝東路四段49巷4弄/大安路口,Daan Dist.,YouBike2.0_Liugong Park,Aly. 4， Ln. 49， Sec. 4， Zhongxiao E. Rd./Da'an Rd. Intersection,1,2026-02-07 17:30:52,2026-02-07 17:30:52,2026-02-07 16:50:03,2026-02-07,20,15,25.04201,121.54612,3
500101154,YouBike2.0_敦化市民路口,大安區,2026-02-07 17:25:16,敦化南路1段158號(前),Daan Dist.,YouBike2.0_Dunhua S. Rd. & Civic Blvd. Intersection,No. 158， Sec. 1， Dunhua S. Rd.,1,2026-02-07 17:30:52,2026-02-07 17:30:52,2026-02-07 17:25:16,2026-02-07,23,20,25.04405,121.5486,1
500101155,YouBike2.0_捷運大安森林公園站(5號出口),大安區,2026-02-07 17:28:18,捷運大安森林公園站(5號出口)東側,Daan Dist.,YouBike2.0_MRT Daan Park Sta. (Exit 5),MRT Daan Park Sta. (Exit 5) (East),1,2026-02-07 17:30:52,2026-02-07 17:30:52,2026-02-07 17:28:18,2026-02-07,15,14,25.03336,121.5364,0
500101156,YouBike2.0_信義建國路口,大安區,2026-02-07 17:09:17,建國南路二段與信義路三段口西南側,Daan Dist.,YouBike2.0_Xinyi Rd. & Jianguo Rd. Intersection,Sec. 2， Jianguo S Rd. & Sec. 3， Xinyi Rd. Intersection (Southwest),1,2026-02-07 17:30:52,2026-02-07 17:30:52,2026-02-07 17:09:17,2026-02-07,52,48,25.0328,121.53746,2
500101157,YouBike2.0_東豐公園,大安區,2026-02-07 17:00:02,東豐街24號(旁公園路側),Daan Dist.,YouBike2.0_Dongfeng Park,No. 24， Dongfeng St.,1,2026-02-07 17:30:52,2026-02-07 17:30:52,2026-02-07 17:00:02,2026-02-07,19,5,25.03569,121.5451,12
500101158,YouBike2.0_德安公園(四維路66巷),大安區,2026-02-07 12:50:02,四維路66巷6號北側,Daan Dist.,YouBike2.0_Dean Park,No. 6， Ln. 66， Siwei Rd.,1,2026-02-07 17:30:52,2026-02-07 17:30:52,2026-02-07 12:50:02,2026-02-07,22,8,25.03473,121.54767,14
500101159,YouBike2.0_捷運忠孝復興站(5號出口),大安區,2026-02-07 17:00:02,復興南路一段135巷口,Daan Dist.,YouBike2.0_MRT Zhongxiao Fuxing Sta (Exit 5),No. 3， Ln. 135， Sec. 1， Fuxing S. Rd. (Opposite),1,2026-02-07 17:30:52,2026-02-07 17:30:52,2026-02-07 17:00:02,2026-02-07,30,23,25.04253,121.54407,5
500101160,YouBike2.0_捷運忠孝敦化站(2號出口),大安區,2026-02-07 17:00:02,忠孝東路四段221號,Daan Dist.,YouBike2.0_MRT Zhongxiao Dunhua Sta. (Exit 2),No. 221， Sec. 4， Zhongxiao E. Rd.,1,2026-02-07 17:30:52,2026-02-07 17:30:52,2026-02-07 17:00:02,2026-02-07,17,13,25.04153,121.5524,4
500101161,YouBike2.0_捷運忠孝敦化站(7號出口),大安區,2026-02-07 17:14:16,忠孝東路四段143號,Daan Dist.,YouBike2.0_MRT Zhongxiao Dunhua Sta. (Exit 7),No. 143， Sec. 4， Zhongxiao E. Rd.,1,2026-02-07 17:30:52,2026-02-07 17:30:52,2026-02-07 17:14:16,2026-02-07,18,12,25.04159,121.54937,4
500101162,YouBike2.0_忠孝東路四段223巷口(市民大道側),大安區,2026-02-07 16:33:16,忠孝東路四段223巷77號北側,Daan Dist.,YouBike2.0_Ln. 223， Sec. 4， Zhongxiao E. Rd. Intersection,No. 77， Ln. 223， Sec. 4， Zhongxiao E. Rd. (North),1,2026-02-07 17:30:52,2026-02-07 17:30:52,2026-02-07 16:33:16,2026-02-07,25,1,25.04427,121.55291,22
500101163,YouBike2.0_瑞安街208巷,大安區,2026-02-07 17:27:19,瑞安街208巷39號對面,Daan Dist.,YouBike2.0_Ln. 208， Rui'an St.,No. 39， Ln. 208， Rui'an St. (Opposite),1,2026-02-07 17:30:52,2026-02-07 17:30:52,2026-02-07 17:27:19,2026-02-07,15,14,25.02979,121.54053,0
500101165,YouBike2.0_樂利路21巷口,大安區,2026-02-07 15:42:15,樂利路25號,Daan Dist.,YouBike2.0_Ln. 21， Leli Rd. Intersection,No. 25， Leli Rd.,1,2026-02-07 17:30:52,2026-02-07 17:30:52,2026-02-07 15:42:15,2026-02-07,17,14,25.0277,121.55132,2
500101166,YouBike2.0_捷運科技大樓站(台北教育大學),大安區,2026-02-07 17:00:02,和平東路二段134號前,Daan Dist.,YouBike2.0_MRT Technology Building Station,No. 134， Sec. 2， Heping E. Rd.,1,2026-02-07 17:30:52,2026-02-07 17:30:52,2026-02-07 17:00:02,2026-02-07,54,36,25.02472,121.54417,18
500101167,YouBike2.0_捷運國父紀念館站(2號出口),大安區,2026-02-07 17:00:02,忠孝東路四段/光復南路口(西南側),Daan Dist.,YouBike2.0_MRT S.Y.S Memorial Hall Stataion(Exit 2.),Sec. 4， Jhongsiao E. Rd. & Guangfu S. Rd. Intersection (Southwest),1,2026-02-07 17:30:52,2026-02-07 17:30:52,2026-02-07 17:00:02,2026-02-07,45,22,25.04122,121.55745,18
500101168,YouBike2.0_仁愛醫院,大安區,2026-02-07 16:10:03,仁愛路四段/大安路一段口(西南側),Daan Dist.,YouBike2.0_Taipei City Hospital Renai Branch,Sec. 4， Ren'ai Rd. & Sec. 1， Da'an Rd. Intersection (Southwest),1,2026-02-07 17:30:52,2026-02-07 17:30:52,2026-02-07 16:10:03,2026-02-07,36,24,25.03756,121.54587,11
500101169,YouBike2.0_捷運信義安和站(4號出口),大安區,2026-02-07 17:00:02,信義路四段252號前,Daan Dist.,YouBike2.0_MRT Xinyi Anhe Sta.(Exit.4),No. 252， Sec. 4， Sinyi Rd.,1,2026-02-07 17:30:52,2026-02-07 17:30:52,2026-02-07 17:00:02,2026-02-07,49,39,25.03305,121.55378,10
500101170,YouBike2.0_成功國宅,大安區,2026-02-07 16:40:04,和平東路三段1巷/四維路198巷口(西北側),Daan Dist.,YouBike2.0_Chenggong Public House,Ln. 1， Sec. 3， Heping E. Rd. & Ln. 198， Sihwei Rd. Intersection (Northwest),1,2026-02-07 17:30:52,2026-02-07 17:30:52,2026-02-07 16:40:04,2026-02-07,36,15,25.02681,121.54668,18
500101171,YouBike2.0_仁愛延吉街口,大安區,2026-02-07 17:09:17,仁愛路四段376號前,Daan Dist.,YouBike2.0_Renai & Yanji Intersection,No. 376， Sec. 4， Ren'ai Rd.,1,2026-02-07 17:30:52,2026-02-07 17:30:52,2026-02-07 17:09:17,2026-02-07,33,32,25.03748,121.55564,1
500101172,YouBike2.0_捷運信義安和站(1號出口),大安區,2026-02-07 17:00:02,信義路四段225號前,Daan Dist.,YouBike2.0_MRT Xinyi Anhe Sta.(Exit.1),No. 225， Sec. 4， Sinyi Rd.,1,2026-02-07 17:30:52,2026-02-07 17:30:52,2026-02-07 17:00:02,2026-02-07,49,32,25.03331,121.55265,13
500101173,YouBike2.0_敦化南路二段103巷口,大安區,2026-02-07 14:40:03,敦化南路二段99號前,Daan Dist.,YouBike2.0_Ln. 103，Sec. 2，Dunhua S. Rd.,No. 99， Sec. 2， Dunhua S. Rd.,1,2026-02-07 17:30:52,2026-02-07 17:30:52,2026-02-07 14:40:03,2026-02-07,24,6,25.0287,121.54904,16
500101174,YouBike2.0_復興南路二段128巷口,大安區,2026-02-07 16:40:04,復興南路二段142之1號前,Daan Dist.,YouBike2.0_Ln. 128， Sec. 2， Fuxing S. Rd.,No. 142-1， Sec. 2， Fusing S. Rd.,1,2026-02-07 17:30:52,2026-02-07 17:30:52,2026-02-07 16:40:04,2026-02-07,31,3,25.02861,121.54336,27
500101175,YouBike2.0_和平東建國南路口,大安區,2026-02-07 14:19:16,和平東路/建國南路口(北側),Daan Dist.,YouBike2.0_Heping E. Rd. & Jianguo S. Rd. Intersection,Heping E. Rd. & Jianguo S. Rd. Intersection (North),1,2026-02-07 17:30:52,2026-02-07 17:30:52,2026-02-07 14:19:16,2026-02-07,17,15,25.02575,121.5377,2
500101176,YouBike2.0_芳蘭山莊,大安區,2026-02-07 15:40:02,基隆路三段155巷148號,Daan Dist.,YouBike2.0_Fanglan,No. 148， Ln. 155， Sec. 3， Keelung Rd.,1,2026-02-07 17:30:52,2026-02-07 17:30:52,2026-02-07 15:40:02,2026-02-07,16,6,25.01223,121.54788,10
500101177,YouBike2.0_復興南路一段126巷口,大安區,2026-02-07 16:52:18,復興南路一段126巷1號前,Daan Dist.,YouBike2.0_Ln. 126， Sec. 1， Fuxing S. Rd.,No. 1， Ln. 126， Sec. 1， Fuxing S. Rd.,1,2026-02-07 17:30:52,2026-02-07 17:30:52,2026-02-07 16:52:18,2026-02-07,15,14,25.04311,121.54313,1
500101179,YouBike2.0_捷運東門站(5號出口),大安區,2026-02-07 17:00:02,信義路二段178號前,Daan Dist.,YouBike2.0_MRT Dongmen Sta. (Exit 5),No. 178， Sec. 2， Xinyi Rd.,1,2026-02-07 17:30:52,2026-02-07 17:30:52,2026-02-07 17:00:02,2026-02-07,28,20,25.03363,121.52962,8
500101180,YouBike2.0_仁愛路四段48巷口,大安區,2026-02-07 17:03:17,仁愛路四段48巷/東豐街(北側),Daan Dist.,YouBike2.0_Ln. 48， Sec. 4， Ren'ai Rd.,Ln. 48， Sec. 4， Ren'ai Rd. & Dongfeng St. Intersection (North),1,2026-02-07 17:30:52,2026-02-07 17:30:52,2026-02-07 17:03:17,2026-02-07,12,11,25.03597,121.54693,1
500101181,YouBike2.0_捷運公館站(3號出口),大安區,2026-02-07 17:27:19,捷運公館站(3號出口)西側,Daan Dist.,YouBike2.0_MRT Gongguan Sta.(Exit.3),MRT Gongguan Sta.(Exit.3)(West),1,2026-02-07 17:30:52,2026-02-07 17:30:52,2026-02-07 17:27:19,2026-02-07,99,55,25.01551,121.53374,41
500101182,YouBike2.0_臺北科技大學(電機工程系),大安區,2026-02-07 17:11:17,忠孝東路三段100號對側,Daan Dist.,YouBike2.0_NTUT(EE),No. 100， Sec. 3， Zhongxiao E. Rd. (Opposite),1,2026-02-07 17:30:52,2026-02-07 17:30:52,2026-02-07 17:11:17,2026-02-07,34,1,25.04196,121.53653,33
500101184,YouBike2.0_新生南路三段94巷口,大安區,2026-02-07 17:27:19,新生南路三段94號前,Daan Dist.,YouBike2.0_Ln. 94， Sec. 3， Xinsheng S. Rd. Intersection,No. 94， Sec. 3， Xinsheng S. Rd.,1,2026-02-07 17:30:52,2026-02-07 17:30:52,2026-02-07 17:27:19,2026-02-07,15,15,25.01744,121.53334,0
500101185,YouBike2.0_辛亥新生路口西北側,大安區,2026-02-07 15:50:03,辛亥路一段/新生南路三段(西北側),Daan Dist.,YouBike2.0_Xinhai Rd. & Xinsheng S. Rd. Intersection,Sec. 1， Xinhai Rd. & Sec. 3， Xinsheng S. Rd. Intersection (Northwest),1,2026-02-07 17:30:52,2026-02-07 17:30:52,2026-02-07 15:50:03,2026-02-07,40,9,25.02267,121.5341,31
500101186,YouBike2.0_捷運大安站(6號出口),大安區,2026-02-07 16:10:03,復興南路一段303號前,Daan Dist.,YouBike2.0_MRT Da’an Sta. (Exit 6),No. 303， Sec. 1， Fuxing S. Rd.,1,2026-02-07 17:30:52,2026-02-07 17:30:52,2026-02-07 16:10:03,2026-02-07,29,11,25.03479,121.54376,17
500101187,YouBike2.0_臥龍街195巷口,大安區,2026-02-07 11:20:04,臥龍街/臥龍街195巷(南側),Daan Dist.,YouBike2.0_Ln. 195， Wolong St.,Wolong St. / Ln. 195， Wolong St. Intersection (South),1,2026-02-07 17:30:52,2026-02-07 17:30:52,2026-02-07 11:20:04,2026-02-07,14,9,25.01783,121.55224,5
500101188,YouBike2.0_辛亥路三段157巷口,大安區,2026-02-07 16:50:03,辛亥路三段與辛亥路三段157巷口西北側,Daan Dist.,YouBike2.0_Ln. 157， Sec. 3， Xinhai Rd.,Sec. 3， Xinhai Rd. & Ln. 157， Sec. 3， Xinhai Rd. Intersection (Northwest),1,2026-02-07 17:30:52,2026-02-07 17:30:52,2026-02-07 16:50:03,2026-02-07,27,4,25.01727,121.54904,23
500101189,YouBike2.0_臥龍基隆路口,大安區,2026-02-07 16:16:16,臥龍街與基隆路二段口東北側,Daan Dist.,YouBike2.0_Wolong St. & Xinyi Rd. Intersection,Wolong St. & Sec. 2， Xinyi Rd. Intersection (Northeast),1,2026-02-07 17:30:52,2026-02-07 17:30:52,2026-02-07 16:16:16,2026-02-07,25,23,25.02039,121.54853,2
500101190,YouBike2.0_敦親公園,大安區,2026-02-07 17:00:02,和平東路二段96巷8之1號(前方),Daan Dist.,YouBike2.0_Dunchin Park,No. 8-1， Ln. 96， Sec. 2， Heping E. Rd.,1,2026-02-07 17:30:52,2026-02-07 17:30:52,2026-02-07 17:00:02,2026-02-07,26,7,25.02347,121.54108,17
500101191,YouBike2.0_大安運動中心,大安區,2026-02-07 17:16:18,辛亥路三段55號前方人行道(大安運動中心),Daan Dist.,YouBike2.0_Taipei Daan Sports Center,No. 55， Sec. 3， Xinhai Rd.,1,2026-02-07 17:30:52,2026-02-07 17:30:52,2026-02-07 17:16:18,2026-02-07,33,26,25.02054,121.54561,7
500101192,YouBike2.0_和平敦化路口,大安區,2026-02-07 16:40:04,和平東路三段 / 敦化南路二段口(東側),Daan Dist.,YouBike2.0_Heping Rd. & Dunhua Rd. Intersection,Sec. 3， Heping E. Rd. & Sec. 2， Dunhua S. Rd. Intersection (East),1,2026-02-07 17:30:52,2026-02-07 17:30:52,2026-02-07 16:40:04,2026-02-07,36,13,25.02444,121.54908,22
500101193,YouBike2.0_基隆長興路口,大安區,2026-02-07 17:20:19,基隆路/長興街(東南側),Daan Dist.,YouBike2.0_Keelung Rd. & Changxing St. Intersection,Keelung Rd. & Changxing St. Intersection (Southeast),1,2026-02-07 17:30:52,2026-02-07 17:30:52,2026-02-07 17:20:19,2026-02-07,51,0,25.01705,121.54435,50
500101194,YouBike2.0_仁愛路四段122巷口,大安區,2026-02-07 16:59:16,仁愛路四段118號前,Daan Dist.,YouBike2.0_Ln. 122， Sec. 4， Ren'ai Rd.,No. 188， Sec. 4， Ren'ai Rd.,1,2026-02-07 17:30:52,2026-02-07 17:30:52,2026-02-07 16:59:16,2026-02-07,25,22,25.03762,121.55009,2
500101196,YouBike2.0_市民敦化路口,大安區,2026-02-07 17:23:16,敦化南路一段111號前,Daan Dist.,YouBike2.0_Civic Blvd. & Dunhua Rd. Intersection,No. 111， Sec. 1， Dunhua S. Rd.,1,2026-02-07 17:30:52,2026-02-07 17:30:52,2026-02-07 17:23:16,2026-02-07,32,31,25.04464,121.54944,0
500101197,YouBike2.0_忠孝東路四段49巷口,大安區,2026-02-07 16:50:03,忠孝東路四段55號前,Daan Dist.,YouBike2.0_Ln. 49， Sec. 4， Zhongxiao E. Rd.,No. 55， Sec. 4， Zhongxiao E. Rd.,1,2026-02-07 17:30:52,2026-02-07 17:30:52,2026-02-07 16:50:03,2026-02-07,15,9,25.04172,121.54541,3
500101198,YouBike2.0_市民復興路口(東南側),大安區,2026-02-07 11:40:02,市民大道四段/復興路一段口(東南側),Daan Dist.,YouBike2.0_Civic Blvd. & Fuxing Rd. Intersection (Southeast),Sec. 4， Civic Blvd. & Sec. 1， Fuxing S. Rd. Intersection (Southeast),1,2026-02-07 17:30:52,2026-02-07 17:30:52,2026-02-07 11:40:02,2026-02-07,26,23,25.04472,121.54401,1
500101199,YouBike2.0_和平新生路口西南側,大安區,2026-02-07 17:00:02,新生南路三段2號前,Daan Dist.,YouBike2.0_Heping Rd. & Xinsheng S. Rd. Intersection (Southwest),No. 2， Sec. 3， Xinsheng S. Rd.,1,2026-02-07 17:30:52,2026-02-07 17:30:52,2026-02-07 17:00:02,2026-02-07,24,8,25.02604,121.534,16
500101200,YouBike2.0_全安公園,大安區,2026-02-07 15:40:02,安和路二段227巷16號對側,Daan Dist.,YouBike2.0_Quanan Park,No. 16， Ln. 227， Sec. 2， Anhe Rd. (Opposite),1,2026-02-07 17:30:52,2026-02-07 17:30:52,2026-02-07 15:40:02,2026-02-07,16,12,25.02535,121.55101,3
500101201,YouBike2.0_信義路三段134巷口,大安區,2026-02-07 17:00:02,信義路三段/信義路三段134巷口,Daan Dist.,YouBike2.0_Ln. 134， Sec. 3， Xinyi Rd.,Sec. 3， Xinyi Rd. & Ln. 134， Sec. 3， Xinyi Rd. Intersection,1,2026-02-07 17:30:52,2026-02-07 17:30:52,2026-02-07 17:00:02,2026-02-07,28,5,25.03333,121.53968,23
500101202,YouBike2.0_仁愛敦南圓環(東南側),大安區,2026-02-07 16:24:17,仁愛路四段110號前,Daan Dist.,YouBike2.0_Renai Dunnan Traffic Cir (Southeast),No. 110， Sec. 4， Ren'ai Rd.,1,2026-02-07 17:30:52,2026-02-07 17:30:52,2026-02-07 16:24:17,2026-02-07,16,13,25.03715,121.54936,2
500101203,YouBike2.0_臺北遠企購物中心,大安區,2026-02-07 17:00:02,敦化南路二段201號前,Daan Dist.,YouBike2.0_The Mall,No. 201， Sec. 2， Dunhua S. Rd.,1,2026-02-07 17:30:52,2026-02-07 17:30:52,2026-02-07 17:00:02,2026-02-07,33,21,25.02709,121.54902,12
500101204,YouBike2.0_外交部外交及國際事務學院,大安區,2026-02-07 16:40:04,敦化南路一段280號,Daan Dist.,YouBike2.0_Institute of Diplomacy and International Affairs,No. 280， Sec. 1， Dunhua S. Rd.,1,2026-02-07 17:30:52,2026-02-07 17:30:52,2026-02-07 16:40:04,2026-02-07,26,25,25.0371,121.54839,1
500101205,YouBike2.0_四維路170巷口,大安區,2026-02-07 08:10:04,敦化南路二段92號對側中央分隔島,Daan Dist.,YouBike2.0_Ln. 170， Siwei Rd.,No. 92， Sec. 2， Dunhua S. Rd. (Opposite),1,2026-02-07 17:30:52,2026-02-07 17:30:52,2026-02-07 08:10:04,2026-02-07,22,7,25.02821,121.54864,14
500101206,YouBike2.0_捷運大安站(3號出口),大安區,2026-02-07 17:00:02,信義路三段184號前,Daan Dist.,YouBike2.0_MRT Da’an Sta. (Exit 3),No. 184， Sec. 3， Xinyi Rd.,1,2026-02-07 17:30:52,2026-02-07 17:30:52,2026-02-07 17:00:02,2026-02-07,46,19,25.03328,121.5425,22
500101207,YouBike2.0_捷運臺電大樓站(2號出口)_1,大安區,2026-02-07 16:50:03,羅斯福路三段201號旁,Daan Dist.,YouBike2.0_MRT Taipower Building Sta. (Exit 2)_1,No. 201， Sec. 3， Roosevelt Rd.,1,2026-02-07 17:30:52,2026-02-07 17:30:52,2026-02-07 16:50:03,2026-02-07,38,16,25.02055,121.52855,22
500101208,YouBike2.0_信義路四段199巷,大安區,2026-02-07 16:50:18,信義路四段199巷/安和路一段90巷口,Daan Dist.,YouBike2.0_Ln. 199， Sec. 4， Xinyi Rd.,Ln. 199， Sec. 4， Xinyi Rd. & Ln. 90， Sec. 1， Anhe Rd. Intersection,1,2026-02-07 17:30:52,2026-02-07 17:30:52,2026-02-07 16:50:18,2026-02-07,15,14,25.03459,121.55164,1
500101209,YouBike2.0_臺大資訊大樓,大安區,2026-02-07 17:00:02,辛亥路二段(臺大外語學院外),Daan Dist.,YouBike2.0_NTU Information Building,Sec. 2， Xinhai Rd.(NTU Language Center),1,2026-02-07 17:30:52,2026-02-07 17:30:52,2026-02-07 17:00:02,2026-02-07,80,19,25.02101,121.54153,60
500101210,YouBike2.0_敦化南路二段81巷,大安區,2026-02-07 16:50:03,敦化南路二段與敦化南路二段81巷口西北側,Daan Dist.,YouBike2.0_Ln. 81， Sec. 2， Dunhua S. Rd.,Sec. 2， Dunhua S. Rd. & Ln. 81， Sec. 2， Dunhua S. Rd. Intersection (Northwest),1,2026-02-07 17:30:52,2026-02-07 17:30:52,2026-02-07 16:50:03,2026-02-07,40,5,25.03002,121.54893,35
500101211,YouBike2.0_原臺北刑務所官舍,大安區,2026-02-07 16:50:03,金華街78號對側,Daan Dist.,YouBike2.0_Former Taipei Prison Office,No. 78， Jinhua St. (Opposite),1,2026-02-07 17:30:52,2026-02-07 17:30:52,2026-02-07 16:50:03,2026-02-07,23,4,25.03054,121.52466,19
500101212,YouBike2.0_捷運國父紀念館站(1號出口),大安區,2026-02-07 17:00:02,光復南路200巷26號東側,Daan Dist.,YouBike2.0_MRT S.Y.S Memorial Hall Sta. (Exit 1),No. 26， Ln. 200， Guangfu S. Rd. (East),1,2026-02-07 17:30:52,2026-02-07 17:30:52,2026-02-07 17:00:02,2026-02-07,24,19,25.04205,121.55657,3
500101213,YouBike2.0_懷生國中,大安區,2026-02-07 16:50:03,忠孝東路三段248巷30號,Daan Dist.,YouBike2.0_Huai Sheng Junior High School,No. 30， Ln. 248， Sec. 3， Zhongxiao E. Rd.,1,2026-02-07 17:30:52,2026-02-07 17:30:52,2026-02-07 16:50:03,2026-02-07,24,21,25.0401,121.54122,3
500101214,YouBike2.0_仁愛敦南圓環(西北側),大安區,2026-02-07 15:40:02,仁愛路四段85號前,Daan Dist.,YouBike2.0_Renai Dunnan Traffic Cir (Northwest),No. 85， Sec. 4， Ren'ai Rd,1,2026-02-07 17:30:52,2026-02-07 17:30:52,2026-02-07 15:40:02,2026-02-07,20,16,25.03827,121.54802,4
500101215,YouBike2.0_立人國小,大安區,2026-02-07 17:00:02,安和路二段/敦化南路二段81巷(西南側),Daan Dist.,YouBike2.0_Lih Jen International Private Elementary and Middle School,Sec. 2， Anhe Rd. & Ln. 81， Sec. 2， Dunhua S. Rd. Intersection (Southwest),1,2026-02-07 17:30:52,2026-02-07 17:30:52,2026-02-07 17:00:02,2026-02-07,17,15,25.02974,121.55146,2
500101216,YouBike2.0_和平東路二段18巷口,大安區,2026-02-07 11:10:02,辛亥路二段43號前,Daan Dist.,YouBike2.0_Ln. 18， Sec. 2， Heping E. Rd.,No. 43， Sec. 2， Xinhai Rd.,1,2026-02-07 17:30:52,2026-02-07 17:30:52,2026-02-07 11:10:02,2026-02-07,24,5,25.02268,121.53608,17
500101217,YouBike2.0_捷運大安站(5號出口),大安區,2026-02-07 17:30:19,復興南路二段/信義路四段(東南側),Daan Dist.,YouBike2.0_MRT Da’an Sta. (Exit 5),Sec. 2， Fuxing S. Rd. & Sec. 4， Xinyi Rd. Intersection (Southeast),1,2026-02-07 17:30:52,2026-02-07 17:30:52,2026-02-07 17:30:19,2026-02-07,26,1,25.03303,121.54372,25
500101218,YouBike2.0_臨江公園,大安區,2026-02-07 16:56:16,通化街143巷33號對側,Daan Dist.,YouBike2.0_Linjiang Park,No. 33， Ln. 143， Tonghua St. (Opposite),1,2026-02-07 17:30:52,2026-02-07 17:30:52,2026-02-07 16:56:16,2026-02-07,23,1,25.02832,121.55592,22
500101219,YouBike2.0_羅斯福路四段113巷19弄口,大安區,2026-02-07 09:38:18,羅斯福路四段119巷84號對側,Daan Dist.,YouBike2.0_Aly. 19， Ln. 113， Sec. 4， Roosevelt Rd.,No. 84， Ln. 119， Sec. 4， Roosevelt Rd. (Opposite),1,2026-02-07 17:30:52,2026-02-07 17:30:52,2026-02-07 09:38:18,2026-02-07,14,8,25.01027,121.53998,6
500101221,YouBike2.0_忠孝東路四段248巷口,大安區,2026-02-07 16:25:16,忠孝東路四段230號前,Daan Dist.,YouBike2.0_Ln. 248， Sec. 4， Zhongxiao E. Rd.,No. 230， Sec. 4， Zhongxiao E. Rd.,1,2026-02-07 17:30:52,2026-02-07 17:30:52,2026-02-07 16:25:16,2026-02-07,25,23,25.04132,121.55393,2
500101222,YouBike2.0_仁愛延吉路口(西北側),大安區,2026-02-07 17:09:17,仁愛路四段363號前,Daan Dist.,YouBike2.0_Ren'ai Rd. & Yanji St. Intersection (Northwest),No. 363， Sec. 4， Ren'ai Rd.,1,2026-02-07 17:30:52,2026-02-07 17:30:52,2026-02-07 17:09:17,2026-02-07,24,22,25.03795,121.55466,2
500101223,YouBike2.0_樂利路101巷口,大安區,2026-02-07 15:44:16,樂利路97號前,Daan Dist.,YouBike2.0_Ln. 101， Leli Rd.,No. 97， Leli Rd.,1,2026-02-07 17:30:52,2026-02-07 17:30:52,2026-02-07 15:44:16,2026-02-07,13,2,25.02528,121.55224,10
500101224,YouBike2.0_羅斯福浦城街口,大安區,2026-02-07 13:50:03,羅斯福路三段117號前,Daan Dist.,YouBike2.0_Roosevelt Rd. & Pucheng St. Intersection,No. 117， Sec. 3， Roosevelt Rd.,1,2026-02-07 17:30:52,2026-02-07 17:30:52,2026-02-07 13:50:03,2026-02-07,25,17,25.02208,121.52678,7
500101225,YouBike2.0_敦化南路一段295巷口,大安區,2026-02-07 16:50:03,敦化南路一段295巷1號,Daan Dist.,YouBike2.0_Ln. 295， Sec. 1， Dunhua S. Rd.,No. 1， Ln. 295， Sec. 1， Dunhua S. Rd.,1,2026-02-07 17:30:52,2026-02-07 17:30:52,2026-02-07 16:50:03,2026-02-07,18,4,25.03551,121.54951,14
500101226,YouBike2.0_通安區民活動中心,大安區,2026-02-07 15:40:02,通安街129號對面,Daan Dist.,YouBike2.0_Ln. 108， Tong'an St.,No. 129， Tong'an St. (Opposite),1,2026-02-07 17:30:52,2026-02-07 17:30:52,2026-02-07 15:40:02,2026-02-07,28,2,25.02942,121.55294,26
500101227,YouBike2.0_復興忠孝東路口(東南側),大安區,2026-02-07 17:15:16,復興南路一段191號前,Daan Dist.,YouBike2.0_Zhongxiao E. Rd. & Fuxing S. Rd. Intersection (Southeast),No. 191， Sec. 1， Fuxing S. Rd.,1,2026-02-07 17:30:52,2026-02-07 17:30:52,2026-02-07 17:15:16,2026-02-07,28,28,25.04061,121.54389,0
500101228,YouBike2.0_仁愛大安路口(東北側),大安區,2026-02-07 16:10:03,仁愛路四段37號前,Daan Dist.,YouBike2.0_Ren'ai Rd. & Da'an Rd. Intersection (Northeast),No. 37， Sec. 4， Ren'ai Rd.,1,2026-02-07 17:30:52,2026-02-07 17:30:52,2026-02-07 16:10:03,2026-02-07,21,12,25.03813,121.54631,9
500101229,YouBike2.0_臺灣師範大學(浦城街),大安區,2026-02-07 17:00:02,浦城街1號對側,Daan Dist.,YouBike2.0_National Taiwan Normal University (Pucheng St.),No. 1， Pucheng St. (Opposite),1,2026-02-07 17:30:52,2026-02-07 17:30:52,2026-02-07 17:00:02,2026-02-07,20,16,25.02476,121.52803,4
500101230,YouBike2.0_安和路二段69巷口,大安區,2026-02-07 15:50:03,安和路二段/安和路二段69巷,Daan Dist.,YouBike2.0_Ln. 69， Sec. 2， Anhe Rd.,Sec. 2， Anhe Rd. & Ln. 69， Sec. 2， Anhe Rd. Intersection,1,2026-02-07 17:30:52,2026-02-07 17:30:52,2026-02-07 15:50:03,2026-02-07,20,12,25.03056,121.55252,8
500101231,YouBike2.0_大安國小,大安區,2026-02-07 17:00:02,臥龍街131巷11弄與樂業街108巷口,Daan Dist.,YouBike2.0_DaAn Elementary School,Aly. 11， Ln. 131， Wolong St. & Ln. 108， Leye St. Intersection,1,2026-02-07 17:30:52,2026-02-07 17:30:52,2026-02-07 17:00:02,2026-02-07,25,5,25.02014,121.55084,19
500101232,YouBike2.0_捷運古亭站(3號出口),大安區,2026-02-07 16:50:03,羅斯福路二段81-1號前,Daan Dist.,YouBike2.0_MRT Guting Sta. (Exit 3),No. 81-1， Sec. 2， Roosevelt Rd.,1,2026-02-07 17:30:52,2026-02-07 17:30:52,2026-02-07 16:50:03,2026-02-07,15,5,25.02572,121.52359,10
500101233,YouBike2.0_捷運忠孝復興站(3號出口),大安區,2026-02-07 16:57:19,忠孝東路四段48號前,Daan Dist.,YouBike2.0_MRT Zhongxiao Fuxing Sta. (Exit 3),No. 48， Sec. 4， ZhongXiao E. Rd.,1,2026-02-07 17:30:52,2026-02-07 17:30:52,2026-02-07 16:57:19,2026-02-07,37,35,25.04152,121.54414,1
500101234,YouBike2.0_和平東路二段90巷,大安區,2026-02-07 17:25:16,和平東路二段90巷/和平東路二段76巷5弄,Daan Dist.,YouBike2.0_Ln. 90， Sec. 2， HePing E. Rd.,Ln. 90， Sec. 2， HePing E. Rd. & Aly. 5， Ln. 76， Sec. 2， HePing E. Rd. Intersection,1,2026-02-07 17:30:52,2026-02-07 17:30:52,2026-02-07 17:25:16,2026-02-07,20,1,25.02468,121.53965,19
500101235,YouBike2.0_光復南路420巷口,大安區,2026-02-07 16:50:03,光復南路438號,Daan Dist.,YouBike2.0_Ln. 420， GuangFu S. Rd.,No. 438， GuangFu S. Rd.,1,2026-02-07 17:30:52,2026-02-07 17:30:52,2026-02-07 16:50:03,2026-02-07,16,8,25.03601,121.55742,8
500101236,YouBike2.0_富陽臥龍街口,大安區,2026-02-07 16:50:03,富陽街129號前,Daan Dist.,YouBike2.0_FuYang St. & WoLong St. Intersection,No. 129， FuYang St.,1,2026-02-07 17:30:52,2026-02-07 17:30:52,2026-02-07 16:50:03,2026-02-07,18,12,25.0187,121.55688,6
500101237,YouBike2.0_仁愛復興路口,大安區,2026-02-07 16:10:03,仁愛路四段1號前,Daan Dist.,YouBike2.0_RenAi Rd. & FuXing Rd. Intersection,No. 1， Sec. 4， RenAi Rd.,1,2026-02-07 17:30:52,2026-02-07 17:30:52,2026-02-07 16:10:03,2026-02-07,29,8,25.03817,121.544,20
500101238,YouBike2.0_仁愛敦南圓環(東側),大安區,2026-02-07 16:36:17,仁愛路四段121號,Daan Dist.,YouBike2.0_RenAi DunNan Traffic Circle  (East),No. 121， Sec. 4， RenAi Rd.,1,2026-02-07 17:30:52,2026-02-07 17:30:52,2026-02-07 16:36:17,2026-02-07,26,24,25.03804,121.55042,1
500101239,YouBike2.0_古風公園,大安區,2026-02-07 17:22:17,龍泉街93巷7號對側,Daan Dist.,YouBike2.0_GuFeng Park,No. 7， Ln. 93， LongQuan St. (Opposite),1,2026-02-07 17:30:52,2026-02-07 17:30:52,2026-02-07 17:22:17,2026-02-07,15,15,25.02187,121.52912,0
500101240,YouBike2.0_和平東路二段76巷,大安區,2026-02-07 16:50:03,和平東路二段96巷20弄2號旁,Daan Dist.,YouBike2.0_Ln. 76， Sec. 2， HePing E. Rd.,No. 2， Aly. 20， Ln. 96， Sec. 2， HePing E. Rd.,1,2026-02-07 17:30:52,2026-02-07 17:30:52,2026-02-07 16:50:03,2026-02-07,40,5,25.02263,121.53906,35
500101241,YouBike2.0_敦化信義路口(東南側),大安區,2026-02-07 14:40:03,敦化南路二段9號,Daan Dist.,YouBike2.0_DunHua S. Rd. & XinYi Rd. Intersection (Southeast),No. 9， Sec. 2， DunHua S. Rd.,1,2026-02-07 17:30:52,2026-02-07 17:30:52,2026-02-07 14:40:03,2026-02-07,20,9,25.03276,121.54907,11
500101242,YouBike2.0_和平東路三段308巷口,大安區,2026-02-07 14:26:17,樂業街173號對側,Daan Dist.,YouBike2.0_Ln. 308， Sec. 3， HePing E. Rd.,No. 173， LeYe St. (Opposite),1,2026-02-07 17:30:52,2026-02-07 17:30:52,2026-02-07 14:26:17,2026-02-07,14,2,25.01883,121.5544,12
500101243,YouBike2.0_忠孝建國路口(東南側),大安區,2026-02-07 15:05:18,忠孝東路三段132號前,Daan Dist.,YouBike2.0_ZhongXiao E. Rd. & JianGuo S. Rd. Intersection (Southeast),No. 132， Sec. 3， ZhongXiao E. Rd.,1,2026-02-07 17:30:52,2026-02-07 17:30:52,2026-02-07 15:05:18,2026-02-07,21,19,25.04159,121.5378,1
500101244,YouBike2.0_浦城街26巷,大安區,2026-02-07 14:50:03,浦城街26巷8號對面,Daan Dist.,YouBike2.0_Ln. 26， PuCheng St.,No. 8， Ln. 26， PuCheng St. (Opposite),1,2026-02-07 17:30:52,2026-02-07 17:30:52,2026-02-07 14:50:03,2026-02-07,17,3,25.02324,121.52618,13
500101245,YouBike2.0_青峰活動中心,大安區,2026-02-07 16:40:04,辛亥路三段(青峰活動中心),Daan Dist.,YouBike2.0_Qingfeng Activity Center,Sec. 3， XinHai Rd. (Qingfeng Activity Center),1,2026-02-07 17:30:52,2026-02-07 17:30:52,2026-02-07 16:40:04,2026-02-07,25,7,25.01524,121.55121,18
500101246,YouBike2.0_忠孝東路三段216巷口,大安區,2026-02-07 17:00:02,忠孝東路三段218號前,Daan Dist.,YouBike2.0_Ln. 216， Sec. 3， ZhongXiao E. Rd.,No. 218， Sec. 3， ZhongXiao E. Rd.,1,2026-02-07 17:30:52,2026-02-07 17:30:52,2026-02-07 17:00:02,2026-02-07,28,11,25.04157,121.5402,17
500101247,YouBike2.0_捷運忠孝復興站(4號出口),大安區,2026-02-07 17:04:18,忠孝東路四段7號前,Daan Dist.,YouBike2.0_MRT Zhongxiao Fuxing Sta. (Exit 4),No. 7， Sec. 4， ZhongXiao E. Rd.,1,2026-02-07 17:30:52,2026-02-07 17:30:52,2026-02-07 17:04:18,2026-02-07,25,23,25.04173,121.54412,2
500101248,YouBike2.0_和平溫州街口,大安區,2026-02-07 16:54:16,和平東路一段187號(前),Daan Dist.,YouBike2.0_HePing E. Rd. & WenZhou St. Intersection,No. 187， Sec. 1， HePing E. Rd.,1,2026-02-07 17:30:52,2026-02-07 17:30:52,2026-02-07 16:54:16,2026-02-07,23,1,25.02634,121.53342,22
500101250,YouBike2.0_國立臺北教育大學創意館,大安區,2026-02-07 17:28:18,復興南路二段337巷6弄14號對側,Daan Dist.,YouBike2.0_NTUE Creative Building,No. 14， Aly. 6， Ln. 337， Sec. 2， FuXing S. Rd.,1,2026-02-07 17:30:52,2026-02-07 17:30:52,2026-02-07 17:28:18,2026-02-07,32,31,25.02305,121.54394,1
500101251,YouBike2.0_捷運忠孝復興站(1號出口),大安區,2026-02-07 16:50:03,忠孝東路三段303號,Daan Dist.,YouBike2.0_MRT Zhongxiao Fuxing Sta. (Exit 1),No. 303， Sec. 3， ZhongXiao E. Rd.,1,2026-02-07 17:30:52,2026-02-07 17:30:52,2026-02-07 16:50:03,2026-02-07,27,17,25.04199,121.54362,9
500101252,YouBike2.0_政大公企中心,大安區,2026-02-07 16:40:04,金華街187號(後方人行道),Daan Dist.,YouBike2.0_NCCU CPBAE,No. 187， JinHua St.,1,2026-02-07 17:30:52,2026-02-07 17:30:52,2026-02-07 16:40:04,2026-02-07,13,6,25.03076,121.52781,7
500101253,YouBike2.0_大安路二段90巷口,大安區,2026-02-07 17:00:02,大安路二段55號(對面),Daan Dist.,YouBike2.0_Ln. 90， Sec. 2， DaAn Rd.,No. 55， Sec. 2， DaAn Rd.,1,2026-02-07 17:30:52,2026-02-07 17:30:52,2026-02-07 17:00:02,2026-02-07,19,13,25.03117,121.54602,6
500101254,YouBike2.0_師大附中運動中心,大安區,2026-02-07 16:10:03,信義路三段111巷143號(旁),Daan Dist.,YouBike2.0_HSNU Sports Center,No. 143， Ln. 111， Sec. 3， XinYi Rd.,1,2026-02-07 17:30:52,2026-02-07 17:30:52,2026-02-07 16:10:03,2026-02-07,33,13,25.03626,121.53997,19
500101255,YouBike2.0_錦安區民活動中心,大安區,2026-02-07 16:40:04,潮州街160號對側,Daan Dist.,YouBike2.0_Jinan Recreation Center,No. 160， ChaoZhou St.,1,2026-02-07 17:30:52,2026-02-07 17:30:52,2026-02-07 16:40:04,2026-02-07,20,3,25.02846,121.52935,17
500101256,YouBike2.0_敦化基隆路口(東北側),大安區,2026-02-07 11:40:02,敦化南路二段333號(前),Daan Dist.,YouBike2.0_KeeLung Rd. & DunHua S. Rd. Intersection (Northeast),No. 333， Sec. 2， DunHua S. Rd.,1,2026-02-07 17:30:52,2026-02-07 17:30:52,2026-02-07 11:40:02,2026-02-07,22,1,25.02196,121.54899,20
500101257,YouBike2.0_龍圖公園,大安區,2026-02-07 17:04:18,復興南路二段78巷42弄5號對面,Daan Dist.,YouBike2.0_Longtu Park,No. 5， Aly. 42， Ln. 78， Sec. 2， FuXing S. Rd. (Opposite),1,2026-02-07 17:30:52,2026-02-07 17:30:52,2026-02-07 17:04:18,2026-02-07,20,1,25.0305,121.54184,19
500101258,YouBike2.0_新生南路二段54巷口,大安區,2026-02-07 17:28:18,新生南路二段50號,Daan Dist.,YouBike2.0_Ln. 54， Sec. 2， XinSheng S. Rd.,No. 50， Sec. 2， XinSheng S. Rd.,1,2026-02-07 17:30:52,2026-02-07 17:30:52,2026-02-07 17:28:18,2026-02-07,26,23,25.02878,121.53412,1
500101259,YouBike2.0_臺靜農人文會館,大安區,2026-02-07 17:00:02,溫州街25號,Daan Dist.,YouBike2.0_Tai JingNong Humanities Hall,No. 25， WenZhou St.,1,2026-02-07 17:30:52,2026-02-07 17:30:52,2026-02-07 17:00:02,2026-02-07,12,9,25.02462,121.53347,3
500101260,YouBike2.0_建國南路二段瑞安街264巷口,大安區,2026-02-07 00:24:01,建國南路二段197號(對面),Daan Dist.,YouBike2.0_Sec. 2， JianGuo S. Rd. & Ln. 264， RuiAn St. Intersection,No. 197， Sec. 2， JianGuo S. Rd. (Opposite),1,2026-02-07 17:30:52,2026-02-07 17:30:52,2026-02-07 00:24:01,2026-02-07,33,25,25.02716,121.53782,8
500101261,YouBike2.0_辛亥路一段77巷口,大安區,2026-02-07 13:50:03,辛亥路一段79號旁,Daan Dist.,YouBike2.0_Aly. 77， Sec. 1， XinHai Rd,No. 79， Sec. 1， XinHai Rd,1,2026-02-07 17:30:52,2026-02-07 17:30:52,2026-02-07 13:50:03,2026-02-07,22,6,25.02128,121.53034,16
500101262,YouBike2.0_愛國東路210巷口,大安區,2026-02-06 21:10:04,愛國東路210巷/愛國東路(東南側),Daan Dist.,YouBike2.0_Ln. 210， AiGuo E. Rd.,Ln. 210， AiGuo E. Rd. &  AiGuo E. Rd. Intersection (Southeast),1,2026-02-07 17:30:52,2026-02-07 17:30:52,2026-02-06 21:10:04,2026-02-06,34,10,25.03187,121.52407,24
500101264,YouBike2.0_金華國中,大安區,2026-02-07 16:50:03,新生南路二段32號(旁),Daan Dist.,YouBike2.0_Jinhua Junior High School,No. 32， Sec. 2， XinSheng S. Rd.,1,2026-02-07 17:30:52,2026-02-07 17:30:52,2026-02-07 16:50:03,2026-02-07,21,15,25.03165,121.53306,5
500101265,YouBike2.0_羅斯福路三段283巷,大安區,2026-02-07 16:50:03,羅斯福路三段269巷51弄9號(旁),Daan Dist.,YouBike2.0_Ln. 283， Sec. 3， Roosevelt Rd.,No. 9， Aly. 51， Ln. 269， Sec. 3， Roosevelt Rd.,1,2026-02-07 17:30:52,2026-02-07 17:30:52,2026-02-07 16:50:03,2026-02-07,18,8,25.02017,121.53178,8
500101266,YouBike2.0_臺科大側門(基隆路四段73巷),大安區,2026-02-07 16:40:04,基隆路四段75號,Daan Dist.,YouBike2.0_NTUST (Ln. 73， Sec. 4， KeeLung Rd.),No. 75， Sec. 4， KeeLung Rd.,1,2026-02-07 17:30:52,2026-02-07 17:30:52,2026-02-07 16:40:04,2026-02-07,35,1,25.01291,121.53967,34
500101267,YouBike2.0_黎和公園,大安區,2026-02-07 15:38:18,臥龍街316號(對面),Daan Dist.,YouBike2.0_Lihe Green,No. 316， WoLong St. (Opposite),1,2026-02-07 17:30:52,2026-02-07 17:30:52,2026-02-07 15:38:18,2026-02-07,15,1,25.01663,121.56011,14
500101268,YouBike2.0_信義四維路口,大安區,2026-02-07 16:50:03,信義路四段111號(前),Daan Dist.,YouBike2.0_XinYi Rd. & SiWei Rd. Intersection,No. 111， Sec. 4， XinYi Rd.,1,2026-02-07 17:30:52,2026-02-07 17:30:52,2026-02-07 16:50:03,2026-02-07,19,14,25.03341,121.54796,5
500101269,YouBike2.0_和平高中(辛亥基隆路口),大安區,2026-02-07 16:40:04,辛亥路三段188號北側,Daan Dist.,YouBike2.0_Heping High School (XinHai Rd. & KeeLung Rd. Intersection),No. 188， Sec. 3， XinHai Rd. (North),1,2026-02-07 17:30:52,2026-02-07 17:30:52,2026-02-07 16:40:04,2026-02-07,55,23,25.01917,121.54708,32
500101270,YouBike2.0_和平東路二段107巷口,大安區,2026-02-07 17:01:17,和平東路二段95號(前),Daan Dist.,YouBike2.0_Ln. 107， Sec. 2， HePing E. Rd.,No. 95， Sec. 2， HePing E. Rd.,1,2026-02-07 17:30:52,2026-02-07 17:30:52,2026-02-07 17:01:17,2026-02-07,12,11,25.02555,121.53951,1
500101271,YouBike2.0_信義金山路口(西南側),大安區,2026-02-07 17:00:02,信義路二段88號(前),Daan Dist.,YouBike2.0_XinYi Rd. & JinShan S. Rd. Intersection (Southwest),No. 88， Sec. 2， XinYi Rd.,1,2026-02-07 17:30:52,2026-02-07 17:30:52,2026-02-07 17:00:02,2026-02-07,12,7,25.03407,121.52682,4
500101272,YouBike2.0_金華國中(信義路二段198巷),大安區,2026-02-07 06:44:02,信義路二段198巷/新生南路二段30巷(東南側),Daan Dist.,YouBike2.0_Jinhua Junior High School (Ln. 198， Sec. 2， XinYi Rd.),Ln. 198， Sec. 2， XinYi Rd. & Ln. 30， Sec. 2， XinSheng S. Rd. Intersection (Southeast),1,2026-02-07 17:30:52,2026-02-07 17:30:52,2026-02-07 06:44:02,2026-02-07,13,6,25.03126,121.5311,7
500101273,YouBike2.0_羅斯福路四段123巷,大安區,2026-02-07 13:49:15,羅斯福路四段123巷17號對側,Daan Dist.,YouBike2.0_Ln. 123， Sec. 4， Roosevelt Rd.,No. 17， Ln. 123， Sec. 4， Roosevelt Rd. (Opposite),1,2026-02-07 17:30:52,2026-02-07 17:30:52,2026-02-07 13:49:15,2026-02-07,15,8,25.01036,121.53752,7
500101274,YouBike2.0_捷運科技大樓站(2號出口),大安區,2026-02-07 16:40:04,復興南路二段224號,Daan Dist.,YouBike2.0_MRT Technology  Building. Sta. (Exit 2),No. 224， Sec. 2， FuXing S. Rd.,1,2026-02-07 17:30:52,2026-02-07 17:30:52,2026-02-07 16:40:04,2026-02-07,72,53,25.02592,121.54328,19
